Abonado,Sitio,Celda,Azimuth,Latitud,Longitud,Radio_de_cobertura,Angulo,IdCelda,Direccion,Prestataria,fecha
111111,antena_1,722-07-4508-103735812,100,-34.575675,-58.523824,1.08,40,402977,Savio 2767 Azo 0 Bernardini y Junin VILLA MAIPU   BUENOS AIRES,MOVISTAR,2023-03-04 23:55:01
222222,antena_2,722-07-4524-103708417,70,-34.575635,-58.523894,1.08,66,402995,Tandil 3863 ntn 0 Bermejo y Joaquin V Gonzalez VILLA MARQUES ALEJANDRO MARIA DE AGUADO   BUENOS AIRES,MOVISTAR,2023-03-05 00:05:05
333333,antena_3,722-07-4508-103738881,40,-34.568335,-58.518412,0.718,65.5,403015,CESAR OLIVEIRA 1642 administracion lanin amoblamientos com ar VILLA MAIPU   BUENOS AIRES,MOVISTAR,2023-03-05 00:15:05
444444,antena_4,722-07-4505-103178756,60,-34.588174,-58.436939,1.08,66,403047,Cnel Niceto Vega 5395 9 Darwin 1415 17 PALERMO   CIUDAD AUTONOMA BUENOS AIRES,MOVISTAR,2023-03-05 00:25:05
222222,antena_5,722-07-4508-103172612,300,-34.576675,-58.524824,0.66,250,403049,Olazabal 5360 Barzana y Altolaguirre VILLA URQUIZA   CIUDAD AUTONOMA BUENOS AIRES,MOVISTAR,2023-03-05 00:06:05
666666,antena_5,722-07-4508-103172612,300,-34.576635,-58.524834,0.66,50,403049,Olazabal 5360 Barzana y Altolaguirre VILLA URQUIZA   CIUDAD AUTONOMA BUENOS AIRES,MOVISTAR,2023-03-05 00:02:05
